[
    {
        "model": "main.State",
        "pk": 1,
        "fields": {
            "name": "Southern Nations, Nationalities, and Peoples' Region",
            "country": 70,
            "country_code": "ET",
            "state_code": "SN",
            "latitude": "6.51569110",
            "longitude": "36.95410700"
        }
    },
    {
        "model": "main.State",
        "pk": 2,
        "fields": {
            "name": "Somali Region",
            "country": 70,
            "country_code": "ET",
            "state_code": "SO",
            "latitude": "6.66122930",
            "longitude": "43.79084530"
        }
    },
    {
        "model": "main.State",
        "pk": 3,
        "fields": {
            "name": "Amhara Region",
            "country": 70,
            "country_code": "ET",
            "state_code": "AM",
            "latitude": "11.34942470",
            "longitude": "37.97845850"
        }
    },
    {
        "model": "main.State",
        "pk": 4,
        "fields": {
            "name": "Tigray Region",
            "country": 70,
            "country_code": "ET",
            "state_code": "TI",
            "latitude": "14.03233360",
            "longitude": "38.31657250"
        }
    },
    {
        "model": "main.State",
        "pk": 5,
        "fields": {
            "name": "Oromia Region",
            "country": 70,
            "country_code": "ET",
            "state_code": "OR",
            "latitude": "7.54603770",
            "longitude": "40.63468510"
        }
    },
    {
        "model": "main.State",
        "pk": 6,
        "fields": {
            "name": "Afar Region",
            "country": 70,
            "country_code": "ET",
            "state_code": "AF",
            "latitude": "11.75593880",
            "longitude": "40.95868800"
        }
    },
    {
        "model": "main.State",
        "pk": 7,
        "fields": {
            "name": "Harari Region",
            "country": 70,
            "country_code": "ET",
            "state_code": "HA",
            "latitude": "9.31486600",
            "longitude": "42.19677160"
        }
    },
    {
        "model": "main.State",
        "pk": 8,
        "fields": {
            "name": "Dire Dawa",
            "country": 70,
            "country_code": "ET",
            "state_code": "DD",
            "latitude": "9.60087470",
            "longitude": "41.85014200"
        }
    },
    {
        "model": "main.State",
        "pk": 9,
        "fields": {
            "name": "Benishangul-Gumuz Region",
            "country": 70,
            "country_code": "ET",
            "state_code": "BE",
            "latitude": "10.78028890",
            "longitude": "35.56578620"
        }
    },
    {
        "model": "main.State",
        "pk": 10,
        "fields": {
            "name": "Gambela Region",
            "country": 70,
            "country_code": "ET",
            "state_code": "GA",
            "latitude": "7.92196870",
            "longitude": "34.15319470"
        }
    },
    {
        "model": "main.State",
        "pk": 11,
        "fields": {
            "name": "Addis Ababa",
            "country": 70,
            "country_code": "ET",
            "state_code": "AA",
            "latitude": "8.98060340",
            "longitude": "38.75776050"
        }
    },
    {
        "model": "main.State",
        "pk": 12,
        "fields": {
            "name": "Petnjica Municipality",
            "country": 147,
            "country_code": "ME",
            "state_code": "23",
            "latitude": "42.93534800",
            "longitude": "20.02114490"
        }
    },
    {
        "model": "main.State",
        "pk": 13,
        "fields": {
            "name": "Bar Municipality",
            "country": 147,
            "country_code": "ME",
            "state_code": "02",
            "latitude": "42.12781190",
            "longitude": "19.14043800"
        }
    },
    {
        "model": "main.State",
        "pk": 14,
        "fields": {
            "name": "Danilovgrad Municipality",
            "country": 147,
            "country_code": "ME",
            "state_code": "07",
            "latitude": "42.58357000",
            "longitude": "19.14043800"
        }
    },
    {
        "model": "main.State",
        "pk": 15,
        "fields": {
            "name": "Rožaje Municipality",
            "country": 147,
            "country_code": "ME",
            "state_code": "17",
            "latitude": "42.84083890",
            "longitude": "20.16706280"
        }
    },
    {
        "model": "main.State",
        "pk": 16,
        "fields": {
            "name": "Plužine Municipality",
            "country": 147,
            "country_code": "ME",
            "state_code": "15",
            "latitude": "43.15933840",
            "longitude": "18.85514840"
        }
    },
    {
        "model": "main.State",
        "pk": 17,
        "fields": {
            "name": "Nikšić Municipality",
            "country": 147,
            "country_code": "ME",
            "state_code": "12",
            "latitude": "42.79971840",
            "longitude": "18.76009630"
        }
    },
    {
        "model": "main.State",
        "pk": 18,
        "fields": {
            "name": "Šavnik Municipality",
            "country": 147,
            "country_code": "ME",
            "state_code": "18",
            "latitude": "42.96037560",
            "longitude": "19.14043800"
        }
    },
    {
        "model": "main.State",
        "pk": 19,
        "fields": {
            "name": "Plav Municipality",
            "country": 147,
            "country_code": "ME",
            "state_code": "13",
            "latitude": "42.60013370",
            "longitude": "19.94075410"
        }
    },
    {
        "model": "main.State",
        "pk": 20,
        "fields": {
            "name": "Pljevlja Municipality",
            "country": 147,
            "country_code": "ME",
            "state_code": "14",
            "latitude": "43.27233830",
            "longitude": "19.28315310"
        }
    },
    {
        "model": "main.State",
        "pk": 21,
        "fields": {
            "name": "Berane Municipality",
            "country": 147,
            "country_code": "ME",
            "state_code": "03",
            "latitude": "42.82572890",
            "longitude": "19.90205090"
        }
    },
    {
        "model": "main.State",
        "pk": 22,
        "fields": {
            "name": "Mojkovac Municipality",
            "country": 147,
            "country_code": "ME",
            "state_code": "11",
            "latitude": "42.96880180",
            "longitude": "19.52110630"
        }
    },
    {
        "model": "main.State",
        "pk": 23,
        "fields": {
            "name": "Andrijevica Municipality",
            "country": 147,
            "country_code": "ME",
            "state_code": "01",
            "latitude": "42.73624770",
            "longitude": "19.78595560"
        }
    },
    {
        "model": "main.State",
        "pk": 24,
        "fields": {
            "name": "Gusinje Municipality",
            "country": 147,
            "country_code": "ME",
            "state_code": "22",
            "latitude": "42.55634550",
            "longitude": "19.83060510"
        }
    },
    {
        "model": "main.State",
        "pk": 25,
        "fields": {
            "name": "Bijelo Polje Municipality",
            "country": 147,
            "country_code": "ME",
            "state_code": "04",
            "latitude": "43.08465260",
            "longitude": "19.71154720"
        }
    },
    {
        "model": "main.State",
        "pk": 26,
        "fields": {
            "name": "Kotor Municipality",
            "country": 147,
            "country_code": "ME",
            "state_code": "10",
            "latitude": "42.57402610",
            "longitude": "18.64131450"
        }
    },
    {
        "model": "main.State",
        "pk": 27,
        "fields": {
            "name": "Podgorica Municipality",
            "country": 147,
            "country_code": "ME",
            "state_code": "16",
            "latitude": "42.36938340",
            "longitude": "19.28315310"
        }
    },
    {
        "model": "main.State",
        "pk": 28,
        "fields": {
            "name": "Old Royal Capital Cetinje",
            "country": 147,
            "country_code": "ME",
            "state_code": "06",
            "latitude": "42.39309590",
            "longitude": "18.91159640"
        }
    },
    {
        "model": "main.State",
        "pk": 29,
        "fields": {
            "name": "Tivat Municipality",
            "country": 147,
            "country_code": "ME",
            "state_code": "19",
            "latitude": "42.42348000",
            "longitude": "18.71851840"
        }
    },
    {
        "model": "main.State",
        "pk": 30,
        "fields": {
            "name": "Budva Municipality",
            "country": 147,
            "country_code": "ME",
            "state_code": "05",
            "latitude": "42.31407200",
            "longitude": "18.83138320"
        }
    },
    {
        "model": "main.State",
        "pk": 31,
        "fields": {
            "name": "Kolašin Municipality",
            "country": 147,
            "country_code": "ME",
            "state_code": "09",
            "latitude": "42.76019160",
            "longitude": "19.42591140"
        }
    },
    {
        "model": "main.State",
        "pk": 32,
        "fields": {
            "name": "Žabljak Municipality",
            "country": 147,
            "country_code": "ME",
            "state_code": "21",
            "latitude": "43.15551520",
            "longitude": "19.12260180"
        }
    },
    {
        "model": "main.State",
        "pk": 33,
        "fields": {
            "name": "Ulcinj Municipality",
            "country": 147,
            "country_code": "ME",
            "state_code": "20",
            "latitude": "41.96527950",
            "longitude": "19.30694320"
        }
    },
    {
        "model": "main.State",
        "pk": 34,
        "fields": {
            "name": "Kunene Region",
            "country": 152,
            "country_code": "NA",
            "state_code": "KU",
            "latitude": "-19.40863170",
            "longitude": "13.91439900"
        }
    },
    {
        "model": "main.State",
        "pk": 35,
        "fields": {
            "name": "Kavango West Region",
            "country": 152,
            "country_code": "NA",
            "state_code": "KW",
            "latitude": "-18.27104800",
            "longitude": "18.42760470"
        }
    },
    {
        "model": "main.State",
        "pk": 36,
        "fields": {
            "name": "Kavango East Region",
            "country": 152,
            "country_code": "NA",
            "state_code": "KE",
            "latitude": "-18.27104800",
            "longitude": "18.42760470"
        }
    },
    {
        "model": "main.State",
        "pk": 37,
        "fields": {
            "name": "Oshana Region",
            "country": 152,
            "country_code": "NA",
            "state_code": "ON",
            "latitude": "-18.43050640",
            "longitude": "15.68817880"
        }
    },
    {
        "model": "main.State",
        "pk": 38,
        "fields": {
            "name": "Hardap Region",
            "country": 152,
            "country_code": "NA",
            "state_code": "HA",
            "latitude": "-24.23101340",
            "longitude": "17.66888700"
        }
    },
    {
        "model": "main.State",
        "pk": 39,
        "fields": {
            "name": "Omusati Region",
            "country": 152,
            "country_code": "NA",
            "state_code": "OS",
            "latitude": "-18.40702940",
            "longitude": "14.84546190"
        }
    },
    {
        "model": "main.State",
        "pk": 40,
        "fields": {
            "name": "Ohangwena Region",
            "country": 152,
            "country_code": "NA",
            "state_code": "OW",
            "latitude": "-17.59792910",
            "longitude": "16.81783770"
        }
    },
    {
        "model": "main.State",
        "pk": 41,
        "fields": {
            "name": "Omaheke Region",
            "country": 152,
            "country_code": "NA",
            "state_code": "OH",
            "latitude": "-21.84666510",
            "longitude": "19.18800470"
        }
    },
    {
        "model": "main.State",
        "pk": 42,
        "fields": {
            "name": "Oshikoto Region",
            "country": 152,
            "country_code": "NA",
            "state_code": "OT",
            "latitude": "-18.41525750",
            "longitude": "16.91225100"
        }
    },
    {
        "model": "main.State",
        "pk": 43,
        "fields": {
            "name": "Erongo Region",
            "country": 152,
            "country_code": "NA",
            "state_code": "ER",
            "latitude": "-22.25656820",
            "longitude": "15.40680790"
        }
    },
    {
        "model": "main.State",
        "pk": 44,
        "fields": {
            "name": "Khomas Region",
            "country": 152,
            "country_code": "NA",
            "state_code": "KH",
            "latitude": "-22.63778540",
            "longitude": "17.10119310"
        }
    },
    {
        "model": "main.State",
        "pk": 45,
        "fields": {
            "name": "Karas Region",
            "country": 152,
            "country_code": "NA",
            "state_code": "KA",
            "latitude": "-26.84296450",
            "longitude": "17.29028390"
        }
    },
    {
        "model": "main.State",
        "pk": 46,
        "fields": {
            "name": "Otjozondjupa Region",
            "country": 152,
            "country_code": "NA",
            "state_code": "OD",
            "latitude": "-20.54869160",
            "longitude": "17.66888700"
        }
    },
    {
        "model": "main.State",
        "pk": 47,
        "fields": {
            "name": "Zambezi Region",
            "country": 152,
            "country_code": "NA",
            "state_code": "CA",
            "latitude": "-17.81934190",
            "longitude": "23.95364660"
        }
    },
    {
        "model": "main.State",
        "pk": 48,
        "fields": {
            "name": "Ashanti Region",
            "country": 83,
            "country_code": "GH",
            "state_code": "AH",
            "latitude": "6.74704360",
            "longitude": "-1.52086240"
        }
    },
    {
        "model": "main.State",
        "pk": 49,
        "fields": {
            "name": "Western Region",
            "country": 83,
            "country_code": "GH",
            "state_code": "WP",
            "latitude": "",
            "longitude": ""
        }
    },
    {
        "model": "main.State",
        "pk": 50,
        "fields": {
            "name": "Eastern Region",
            "country": 83,
            "country_code": "GH",
            "state_code": "EP",
            "latitude": "",
            "longitude": ""
        }
    },
    {
        "model": "main.State",
        "pk": 51,
        "fields": {
            "name": "Northern Region",
            "country": 83,
            "country_code": "GH",
            "state_code": "NP",
            "latitude": "",
            "longitude": ""
        }
    },
    {
        "model": "main.State",
        "pk": 52,
        "fields": {
            "name": "Central Region",
            "country": 83,
            "country_code": "GH",
            "state_code": "CP",
            "latitude": "",
            "longitude": ""
        }
    },
    {
        "model": "main.State",
        "pk": 53,
        "fields": {
            "name": "Brong-Ahafo Region",
            "country": 83,
            "country_code": "GH",
            "state_code": "BA",
            "latitude": "7.95592470",
            "longitude": "-1.67606910"
        }
    },
    {
        "model": "main.State",
        "pk": 54,
        "fields": {
            "name": "Greater Accra Region",
            "country": 83,
            "country_code": "GH",
            "state_code": "AA",
            "latitude": "5.81428360",
            "longitude": "0.07467670"
        }
    },
    {
        "model": "main.State",
        "pk": 55,
        "fields": {
            "name": "Upper East Region",
            "country": 83,
            "country_code": "GH",
            "state_code": "UE",
            "latitude": "10.70824990",
            "longitude": "-0.98206680"
        }
    },
    {
        "model": "main.State",
        "pk": 56,
        "fields": {
            "name": "Volta Region",
            "country": 83,
            "country_code": "GH",
            "state_code": "TV",
            "latitude": "6.57813730",
            "longitude": "0.45023680"
        }
    },
    {
        "model": "main.State",
        "pk": 57,
        "fields": {
            "name": "Upper West Region",
            "country": 83,
            "country_code": "GH",
            "state_code": "UW",
            "latitude": "10.25297570",
            "longitude": "-2.14502450"
        }
    },
    {
        "model": "main.State",
        "pk": 58,
        "fields": {
            "name": "San Marino",
            "country": 192,
            "country_code": "SM",
            "state_code": "07",
            "latitude": "43.94236000",
            "longitude": "12.45777700"
        }
    },
    {
        "model": "main.State",
        "pk": 59,
        "fields": {
            "name": "Acquaviva",
            "country": 192,
            "country_code": "SM",
            "state_code": "01",
            "latitude": "41.86715970",
            "longitude": "14.74694790"
        }
    },
    {
        "model": "main.State",
        "pk": 60,
        "fields": {
            "name": "Chiesanuova",
            "country": 192,
            "country_code": "SM",
            "state_code": "02",
            "latitude": "45.42261720",
            "longitude": "7.65038540"
        }
    },
    {
        "model": "main.State",
        "pk": 61,
        "fields": {
            "name": "Borgo Maggiore",
            "country": 192,
            "country_code": "SM",
            "state_code": "06",
            "latitude": "43.95748820",
            "longitude": "12.45525460"
        }
    },
    {
        "model": "main.State",
        "pk": 62,
        "fields": {
            "name": "Faetano",
            "country": 192,
            "country_code": "SM",
            "state_code": "04",
            "latitude": "43.93489670",
            "longitude": "12.48965540"
        }
    },
    {
        "model": "main.State",
        "pk": 63,
        "fields": {
            "name": "Montegiardino",
            "country": 192,
            "country_code": "SM",
            "state_code": "08",
            "latitude": "43.90529990",
            "longitude": "12.48105420"
        }
    },
    {
        "model": "main.State",
        "pk": 64,
        "fields": {
            "name": "Domagnano",
            "country": 192,
            "country_code": "SM",
            "state_code": "03",
            "latitude": "43.95019290",
            "longitude": "12.46815370"
        }
    },
    {
        "model": "main.State",
        "pk": 65,
        "fields": {
            "name": "Serravalle",
            "country": 192,
            "country_code": "SM",
            "state_code": "09",
            "latitude": "44.72320840",
            "longitude": "8.85740050"
        }
    },
    {
        "model": "main.State",
        "pk": 66,
        "fields": {
            "name": "Fiorentino",
            "country": 192,
            "country_code": "SM",
            "state_code": "05",
            "latitude": "43.90783370",
            "longitude": "12.45812090"
        }
    },
    {
        "model": "main.State",
        "pk": 67,
        "fields": {
            "name": "Tillabéri Region",
            "country": 160,
            "country_code": "NE",
            "state_code": "6",
            "latitude": "14.64895250",
            "longitude": "2.14502450"
        }
    },
    {
        "model": "main.State",
        "pk": 68,
        "fields": {
            "name": "Dosso Region",
            "country": 160,
            "country_code": "NE",
            "state_code": "3",
            "latitude": "13.15139470",
            "longitude": "3.41955270"
        }
    },
    {
        "model": "main.State",
        "pk": 69,
        "fields": {
            "name": "Zinder Region",
            "country": 160,
            "country_code": "NE",
            "state_code": "7",
            "latitude": "15.17188810",
            "longitude": "10.26001250"
        }
    },
    {
        "model": "main.State",
        "pk": 70,
        "fields": {
            "name": "Maradi Region",
            "country": 160,
            "country_code": "NE",
            "state_code": "4",
            "latitude": "13.80180740",
            "longitude": "7.43813550"
        }
    },
    {
        "model": "main.State",
        "pk": 71,
        "fields": {
            "name": "Agadez Region",
            "country": 160,
            "country_code": "NE",
            "state_code": "1",
            "latitude": "20.66707520",
            "longitude": "12.07182810"
        }
    },
    {
        "model": "main.State",
        "pk": 72,
        "fields": {
            "name": "Diffa Region",
            "country": 160,
            "country_code": "NE",
            "state_code": "2",
            "latitude": "13.67686470",
            "longitude": "12.71351210"
        }
    },
    {
        "model": "main.State",
        "pk": 73,
        "fields": {
            "name": "Tahoua Region",
            "country": 160,
            "country_code": "NE",
            "state_code": "5",
            "latitude": "16.09025430",
            "longitude": "5.39395510"
        }
    },
    {
        "model": "main.State",
        "pk": 74,
        "fields": {
            "name": "Mqabba",
            "country": 135,
            "country_code": "MT",
            "state_code": "33",
            "latitude": "35.84441430",
            "longitude": "14.46941860"
        }
    },
    {
        "model": "main.State",
        "pk": 75,
        "fields": {
            "name": "San Ġwann",
            "country": 135,
            "country_code": "MT",
            "state_code": "49",
            "latitude": "35.90773650",
            "longitude": "14.47524160"
        }
    },
    {
        "model": "main.State",
        "pk": 76,
        "fields": {
            "name": "Żurrieq",
            "country": 135,
            "country_code": "MT",
            "state_code": "68",
            "latitude": "35.82163060",
            "longitude": "14.48106480"
        }
    },
    {
        "model": "main.State",
        "pk": 77,
        "fields": {
            "name": "Luqa",
            "country": 135,
            "country_code": "MT",
            "state_code": "25",
            "latitude": "35.85828650",
            "longitude": "14.48688830"
        }
    },
    {
        "model": "main.State",
        "pk": 78,
        "fields": {
            "name": "Marsaxlokk",
            "country": 135,
            "country_code": "MT",
            "state_code": "28",
            "latitude": "35.84116990",
            "longitude": "14.53930970"
        }
    },
    {
        "model": "main.State",
        "pk": 79,
        "fields": {
            "name": "Qala",
            "country": 135,
            "country_code": "MT",
            "state_code": "42",
            "latitude": "36.03886280",
            "longitude": "14.31810100"
        }
    },
    {
        "model": "main.State",
        "pk": 80,
        "fields": {
            "name": "Żebbuġ Malta",
            "country": 135,
            "country_code": "MT",
            "state_code": "66",
            "latitude": "35.87646480",
            "longitude": "14.43908400"
        }
    },
    {
        "model": "main.State",
        "pk": 81,
        "fields": {
            "name": "Xgħajra",
            "country": 135,
            "country_code": "MT",
            "state_code": "63",
            "latitude": "35.88682820",
            "longitude": "14.54723910"
        }
    },
    {
        "model": "main.State",
        "pk": 82,
        "fields": {
            "name": "Kirkop",
            "country": 135,
            "country_code": "MT",
            "state_code": "23",
            "latitude": "35.84378620",
            "longitude": "14.48543240"
        }
    },
    {
        "model": "main.State",
        "pk": 83,
        "fields": {
            "name": "Rabat",
            "country": 135,
            "country_code": "MT",
            "state_code": "46",
            "latitude": "33.97159040",
            "longitude": "-6.84981290"
        }
    },
    {
        "model": "main.State",
        "pk": 84,
        "fields": {
            "name": "Floriana",
            "country": 135,
            "country_code": "MT",
            "state_code": "09",
            "latitude": "45.49521850",
            "longitude": "-73.71395760"
        }
    },
    {
        "model": "main.State",
        "pk": 85,
        "fields": {
            "name": "Żebbuġ Gozo",
            "country": 135,
            "country_code": "MT",
            "state_code": "65",
            "latitude": "36.07164030",
            "longitude": "14.24540800"
        }
    },
    {
        "model": "main.State",
        "pk": 86,
        "fields": {
            "name": "Swieqi",
            "country": 135,
            "country_code": "MT",
            "state_code": "57",
            "latitude": "35.91911820",
            "longitude": "14.46941860"
        }
    },
    {
        "model": "main.State",
        "pk": 87,
        "fields": {
            "name": "Saint Lawrence",
            "country": 135,
            "country_code": "MT",
            "state_code": "50",
            "latitude": "38.95780560",
            "longitude": "-95.25656890"
        }
    },
    {
        "model": "main.State",
        "pk": 88,
        "fields": {
            "name": "Birżebbuġa",
            "country": 135,
            "country_code": "MT",
            "state_code": "05",
            "latitude": "35.81359890",
            "longitude": "14.52474630"
        }
    },
    {
        "model": "main.State",
        "pk": 89,
        "fields": {
            "name": "Mdina",
            "country": 135,
            "country_code": "MT",
            "state_code": "29",
            "latitude": "35.88809300",
            "longitude": "14.40683570"
        }
    },
    {
        "model": "main.State",
        "pk": 90,
        "fields": {
            "name": "Santa Venera",
            "country": 135,
            "country_code": "MT",
            "state_code": "54",
            "latitude": "35.89022010",
            "longitude": "14.47669740"
        }
    },
    {
        "model": "main.State",
        "pk": 91,
        "fields": {
            "name": "Kerċem",
            "country": 135,
            "country_code": "MT",
            "state_code": "22",
            "latitude": "36.04479390",
            "longitude": "14.22506050"
        }
    },
    {
        "model": "main.State",
        "pk": 92,
        "fields": {
            "name": "Għarb",
            "country": 135,
            "country_code": "MT",
            "state_code": "14",
            "latitude": "36.06890900",
            "longitude": "14.20180980"
        }
    },
    {
        "model": "main.State",
        "pk": 93,
        "fields": {
            "name": "Iklin",
            "country": 135,
            "country_code": "MT",
            "state_code": "19",
            "latitude": "35.90987740",
            "longitude": "14.45777320"
        }
    },
    {
        "model": "main.State",
        "pk": 94,
        "fields": {
            "name": "Santa Luċija",
            "country": 135,
            "country_code": "MT",
            "state_code": "53",
            "latitude": "35.85614200",
            "longitude": "14.50436000"
        }
    },
    {
        "model": "main.State",
        "pk": 95,
        "fields": {
            "name": "Valletta",
            "country": 135,
            "country_code": "MT",
            "state_code": "60",
            "latitude": "35.89890850",
            "longitude": "14.51455280"
        }
    },
    {
        "model": "main.State",
        "pk": 96,
        "fields": {
            "name": "Msida",
            "country": 135,
            "country_code": "MT",
            "state_code": "34",
            "latitude": "35.89563880",
            "longitude": "14.48688830"
        }
    },
    {
        "model": "main.State",
        "pk": 97,
        "fields": {
            "name": "Birkirkara",
            "country": 135,
            "country_code": "MT",
            "state_code": "04",
            "latitude": "35.89547060",
            "longitude": "14.46650720"
        }
    },
    {
        "model": "main.State",
        "pk": 98,
        "fields": {
            "name": "Siġġiewi",
            "country": 135,
            "country_code": "MT",
            "state_code": "55",
            "latitude": "35.84637420",
            "longitude": "14.43157460"
        }
    },
    {
        "model": "main.State",
        "pk": 99,
        "fields": {
            "name": "Kalkara",
            "country": 135,
            "country_code": "MT",
            "state_code": "21",
            "latitude": "35.89142420",
            "longitude": "14.53202780"
        }
    },
    {
        "model": "main.State",
        "pk": 100,
        "fields": {
            "name": "St. Julian's",
            "country": 135,
            "country_code": "MT",
            "state_code": "48",
            "latitude": "42.21225130",
            "longitude": "-85.89171270"
        }
    },
    {
        "model": "main.State",
        "pk": 101,
        "fields": {
            "name": "Victoria",
            "country": 135,
            "country_code": "MT",
            "state_code": "45",
            "latitude": "28.80526740",
            "longitude": "-97.00359820"
        }
    },
    {
        "model": "main.State",
        "pk": 102,
        "fields": {
            "name": "Mellieħa",
            "country": 135,
            "country_code": "MT",
            "state_code": "30",
            "latitude": "35.95235290",
            "longitude": "14.35009750"
        }
    },
    {
        "model": "main.State",
        "pk": 103,
        "fields": {
            "name": "Tarxien",
            "country": 135,
            "country_code": "MT",
            "state_code": "59",
            "latitude": "35.86725520",
            "longitude": "14.51164050"
        }
    },
    {
        "model": "main.State",
        "pk": 104,
        "fields": {
            "name": "Sliema",
            "country": 135,
            "country_code": "MT",
            "state_code": "56",
            "latitude": "35.91100810",
            "longitude": "14.50290400"
        }
    },
    {
        "model": "main.State",
        "pk": 105,
        "fields": {
            "name": "Ħamrun",
            "country": 135,
            "country_code": "MT",
            "state_code": "18",
            "latitude": "35.88612370",
            "longitude": "14.48834420"
        }
    },
    {
        "model": "main.State",
        "pk": 106,
        "fields": {
            "name": "Għasri",
            "country": 135,
            "country_code": "MT",
            "state_code": "16",
            "latitude": "36.06680750",
            "longitude": "14.21924750"
        }
    },
    {
        "model": "main.State",
        "pk": 107,
        "fields": {
            "name": "Birgu",
            "country": 135,
            "country_code": "MT",
            "state_code": "03",
            "latitude": "35.88792140",
            "longitude": "14.52256200"
        }
    },
    {
        "model": "main.State",
        "pk": 108,
        "fields": {
            "name": "Balzan",
            "country": 135,
            "country_code": "MT",
            "state_code": "02",
            "latitude": "35.89574140",
            "longitude": "14.45340650"
        }
    },
    {
        "model": "main.State",
        "pk": 109,
        "fields": {
            "name": "Mġarr",
            "country": 135,
            "country_code": "MT",
            "state_code": "31",
            "latitude": "35.91893270",
            "longitude": "14.36173430"
        }
    },
    {
        "model": "main.State",
        "pk": 110,
        "fields": {
            "name": "Attard",
            "country": 135,
            "country_code": "MT",
            "state_code": "01",
            "latitude": "35.89049670",
            "longitude": "14.41993220"
        }
    },
    {
        "model": "main.State",
        "pk": 111,
        "fields": {
            "name": "Qrendi",
            "country": 135,
            "country_code": "MT",
            "state_code": "44",
            "latitude": "35.83284880",
            "longitude": "14.45486210"
        }
    },
    {
        "model": "main.State",
        "pk": 112,
        "fields": {
            "name": "Naxxar",
            "country": 135,
            "country_code": "MT",
            "state_code": "38",
            "latitude": "35.93175180",
            "longitude": "14.43157460"
        }
    },
    {
        "model": "main.State",
        "pk": 113,
        "fields": {
            "name": "Gżira",
            "country": 135,
            "country_code": "MT",
            "state_code": "12",
            "latitude": "35.90589700",
            "longitude": "14.49533380"
        }
    },
    {
        "model": "main.State",
        "pk": 114,
        "fields": {
            "name": "Xagħra",
            "country": 135,
            "country_code": "MT",
            "state_code": "61",
            "latitude": "36.05084500",
            "longitude": "14.26748200"
        }
    },
    {
        "model": "main.State",
        "pk": 115,
        "fields": {
            "name": "Paola",
            "country": 135,
            "country_code": "MT",
            "state_code": "39",
            "latitude": "38.57223530",
            "longitude": "-94.87912940"
        }
    },
    {
        "model": "main.State",
        "pk": 116,
        "fields": {
            "name": "Sannat",
            "country": 135,
            "country_code": "MT",
            "state_code": "52",
            "latitude": "36.01926430",
            "longitude": "14.25994370"
        }
    },
    {
        "model": "main.State",
        "pk": 117,
        "fields": {
            "name": "Dingli",
            "country": 135,
            "country_code": "MT",
            "state_code": "07",
            "latitude": "35.86273090",
            "longitude": "14.38501070"
        }
    },
    {
        "model": "main.State",
        "pk": 118,
        "fields": {
            "name": "Gudja",
            "country": 135,
            "country_code": "MT",
            "state_code": "11",
            "latitude": "35.84698030",
            "longitude": "14.50290400"
        }
    },
    {
        "model": "main.State",
        "pk": 119,
        "fields": {
            "name": "Qormi",
            "country": 135,
            "country_code": "MT",
            "state_code": "43",
            "latitude": "35.87643880",
            "longitude": "14.46941860"
        }
    },
    {
        "model": "main.State",
        "pk": 120,
        "fields": {
            "name": "Għargħur",
            "country": 135,
            "country_code": "MT",
            "state_code": "15",
            "latitude": "35.92205690",
            "longitude": "14.45631760"
        }
    },
    {
        "model": "main.State",
        "pk": 121,
        "fields": {
            "name": "Xewkija",
            "country": 135,
            "country_code": "MT",
            "state_code": "62",
            "latitude": "36.02992360",
            "longitude": "14.25994370"
        }
    },
    {
        "model": "main.State",
        "pk": 122,
        "fields": {
            "name": "Ta' Xbiex",
            "country": 135,
            "country_code": "MT",
            "state_code": "58",
            "latitude": "35.89914480",
            "longitude": "14.49635190"
        }
    },
    {
        "model": "main.State",
        "pk": 123,
        "fields": {
            "name": "Żabbar",
            "country": 135,
            "country_code": "MT",
            "state_code": "64",
            "latitude": "35.87247150",
            "longitude": "14.54513540"
        }
    },
    {
        "model": "main.State",
        "pk": 124,
        "fields": {
            "name": "Għaxaq",
            "country": 135,
            "country_code": "MT",
            "state_code": "17",
            "latitude": "35.84403590",
            "longitude": "14.51600900"
        }
    },
    {
        "model": "main.State",
        "pk": 125,
        "fields": {
            "name": "Pembroke",
            "country": 135,
            "country_code": "MT",
            "state_code": "40",
            "latitude": "34.68016260",
            "longitude": "-79.19503730"
        }
    },
    {
        "model": "main.State",
        "pk": 126,
        "fields": {
            "name": "Lija",
            "country": 135,
            "country_code": "MT",
            "state_code": "24",
            "latitude": "49.18007600",
            "longitude": "-123.10331700"
        }
    },
    {
        "model": "main.State",
        "pk": 127,
        "fields": {
            "name": "Pietà",
            "country": 135,
            "country_code": "MT",
            "state_code": "41",
            "latitude": "42.21862000",
            "longitude": "-83.73464700"
        }
    },
    {
        "model": "main.State",
        "pk": 128,
        "fields": {
            "name": "Marsa",
            "country": 135,
            "country_code": "MT",
            "state_code": "26",
            "latitude": "34.03195870",
            "longitude": "-118.44555350"
        }
    },
    {
        "model": "main.State",
        "pk": 129,
        "fields": {
            "name": "Fgura",
            "country": 135,
            "country_code": "MT",
            "state_code": "08",
            "latitude": "35.87382690",
            "longitude": "14.52329010"
        }
    },
    {
        "model": "main.State",
        "pk": 130,
        "fields": {
            "name": "Għajnsielem",
            "country": 135,
            "country_code": "MT",
            "state_code": "13",
            "latitude": "36.02479660",
            "longitude": "14.28029610"
        }
    },
    {
        "model": "main.State",
        "pk": 131,
        "fields": {
            "name": "Mtarfa",
            "country": 135,
            "country_code": "MT",
            "state_code": "35",
            "latitude": "35.88951250",
            "longitude": "14.39519530"
        }
    },
    {
        "model": "main.State",
        "pk": 132,
        "fields": {
            "name": "Munxar",
            "country": 135,
            "country_code": "MT",
            "state_code": "36",
            "latitude": "36.02880580",
            "longitude": "14.22506050"
        }
    },
    {
        "model": "main.State",
        "pk": 133,
        "fields": {
            "name": "Nadur",
            "country": 135,
            "country_code": "MT",
            "state_code": "37",
            "latitude": "36.04470190",
            "longitude": "14.29192730"
        }
    },
    {
        "model": "main.State",
        "pk": 134,
        "fields": {
            "name": "Fontana",
            "country": 135,
            "country_code": "MT",
            "state_code": "10",
            "latitude": "34.09223350",
            "longitude": "-117.43504800"
        }
    },
    {
        "model": "main.State",
        "pk": 135,
        "fields": {
            "name": "Żejtun",
            "country": 135,
            "country_code": "MT",
            "state_code": "67",
            "latitude": "35.85487140",
            "longitude": "14.53639690"
        }
    },
    {
        "model": "main.State",
        "pk": 136,
        "fields": {
            "name": "Senglea",
            "country": 135,
            "country_code": "MT",
            "state_code": "20",
            "latitude": "35.88730410",
            "longitude": "14.51673710"
        }
    },
    {
        "model": "main.State",
        "pk": 137,
        "fields": {
            "name": "Marsaskala",
            "country": 135,
            "country_code": "MT",
            "state_code": "27",
            "latitude": "35.86036400",
            "longitude": "14.55678760"
        }
    },
    {
        "model": "main.State",
        "pk": 138,
        "fields": {
            "name": "Cospicua",
            "country": 135,
            "country_code": "MT",
            "state_code": "06",
            "latitude": "35.88067530",
            "longitude": "14.52183380"
        }
    },
    {
        "model": "main.State",
        "pk": 139,
        "fields": {
            "name": "St. Paul's Bay",
            "country": 135,
            "country_code": "MT",
            "state_code": "51",
            "latitude": "35.93601700",
            "longitude": "14.39665030"
        }
    },
    {
        "model": "main.State",
        "pk": 140,
        "fields": {
            "name": "Mosta",
            "country": 135,
            "country_code": "MT",
            "state_code": "32",
            "latitude": "35.91415040",
            "longitude": "14.42284270"
        }
    },
    {
        "model": "main.State",
        "pk": 141,
        "fields": {
            "name": "Mangystau Region",
            "country": 112,
            "country_code": "KZ",
            "state_code": "MAN",
            "latitude": "44.59080200",
            "longitude": "53.84995080"
        }
    },
    {
        "model": "main.State",
        "pk": 142,
        "fields": {
            "name": "Kyzylorda Region",
            "country": 112,
            "country_code": "KZ",
            "state_code": "KZY",
            "latitude": "44.69226130",
            "longitude": "62.65718850"
        }
    },
    {
        "model": "main.State",
        "pk": 143,
        "fields": {
            "name": "Almaty Region",
            "country": 112,
            "country_code": "KZ",
            "state_code": "ALM",
            "latitude": "45.01192270",
            "longitude": "78.42293920"
        }
    },
    {
        "model": "main.State",
        "pk": 144,
        "fields": {
            "name": "North Kazakhstan Region",
            "country": 112,
            "country_code": "KZ",
            "state_code": "SEV",
            "latitude": "54.16220660",
            "longitude": "69.93870710"
        }
    },
    {
        "model": "main.State",
        "pk": 145,
        "fields": {
            "name": "Akmola Region",
            "country": 112,
            "country_code": "KZ",
            "state_code": "AKM",
            "latitude": "51.91653200",
            "longitude": "69.41104940"
        }
    },
    {
        "model": "main.State",
        "pk": 146,
        "fields": {
            "name": "Pavlodar Region",
            "country": 112,
            "country_code": "KZ",
            "state_code": "PAV",
            "latitude": "52.28784440",
            "longitude": "76.97334530"
        }
    },
    {
        "model": "main.State",
        "pk": 147,
        "fields": {
            "name": "Jambyl Region",
            "country": 112,
            "country_code": "KZ",
            "state_code": "ZHA",
            "latitude": "44.22203080",
            "longitude": "72.36579670"
        }
    },
    {
        "model": "main.State",
        "pk": 148,
        "fields": {
            "name": "West Kazakhstan Province",
            "country": 112,
            "country_code": "KZ",
            "state_code": "ZAP",
            "latitude": "49.56797270",
            "longitude": "50.80666160"
        }
    },
    {
        "model": "main.State",
        "pk": 149,
        "fields": {
            "name": "Turkestan Region",
            "country": 112,
            "country_code": "KZ",
            "state_code": "YUZ",
            "latitude": "43.36669580",
            "longitude": "68.40944050"
        }
    },
    {
        "model": "main.State",
        "pk": 150,
        "fields": {
            "name": "Karaganda Region",
            "country": 112,
            "country_code": "KZ",
            "state_code": "KAR",
            "latitude": "47.90221820",
            "longitude": "71.77068070"
        }
    },
    {
        "model": "main.State",
        "pk": 151,
        "fields": {
            "name": "Aktobe Region",
            "country": 112,
            "country_code": "KZ",
            "state_code": "AKT",
            "latitude": "48.77970780",
            "longitude": "57.99743780"
        }
    },
    {
        "model": "main.State",
        "pk": 152,
        "fields": {
            "name": "Almaty",
            "country": 112,
            "country_code": "KZ",
            "state_code": "ALA",
            "latitude": "43.22201460",
            "longitude": "76.85124850"
        }
    },
    {
        "model": "main.State",
        "pk": 153,
        "fields": {
            "name": "Atyrau Region",
            "country": 112,
            "country_code": "KZ",
            "state_code": "ATY",
            "latitude": "47.10761880",
            "longitude": "51.91413300"
        }
    },
    {
        "model": "main.State",
        "pk": 154,
        "fields": {
            "name": "East Kazakhstan Region",
            "country": 112,
            "country_code": "KZ",
            "state_code": "VOS",
            "latitude": "48.70626870",
            "longitude": "80.79225340"
        }
    },
    {
        "model": "main.State",
        "pk": 155,
        "fields": {
            "name": "Baikonur",
            "country": 112,
            "country_code": "KZ",
            "state_code": "BAY",
            "latitude": "45.96458510",
            "longitude": "63.30524280"
        }
    },
    {
        "model": "main.State",
        "pk": 156,
        "fields": {
            "name": "Nur-Sultan",
            "country": 112,
            "country_code": "KZ",
            "state_code": "AST",
            "latitude": "51.16052270",
            "longitude": "71.47035580"
        }
    },
    {
        "model": "main.State",
        "pk": 157,
        "fields": {
            "name": "Kostanay Region",
            "country": 112,
            "country_code": "KZ",
            "state_code": "KUS",
            "latitude": "51.50770960",
            "longitude": "64.04790730"
        }
    },
    {
        "model": "main.State",
        "pk": 158,
        "fields": {
            "name": "Kakamega County",
            "country": 113,
            "country_code": "KE",
            "state_code": "11",
            "latitude": "0.30789400",
            "longitude": "34.77407930"
        }
    },
    {
        "model": "main.State",
        "pk": 159,
        "fields": {
            "name": "Kisii County",
            "country": 113,
            "country_code": "KE",
            "state_code": "16",
            "latitude": "-0.67733400",
            "longitude": "34.77960300"
        }
    },
    {
        "model": "main.State",
        "pk": 160,
        "fields": {
            "name": "Central Province",
            "country": 113,
            "country_code": "KE",
            "state_code": "200",
            "latitude": "",
            "longitude": ""
        }
    },
    {
        "model": "main.State",
        "pk": 161,
        "fields": {
            "name": "Busia County",
            "country": 113,
            "country_code": "KE",
            "state_code": "04",
            "latitude": "0.43465060",
            "longitude": "34.24215970"
        }
    },
    {
        "model": "main.State",
        "pk": 162,
        "fields": {
            "name": "North Eastern Province",
            "country": 113,
            "country_code": "KE",
            "state_code": "500",
            "latitude": "7.78530510",
            "longitude": "81.42789840"
        }
    },
    {
        "model": "main.State",
        "pk": 163,
        "fields": {
            "name": "Embu County",
            "country": 113,
            "country_code": "KE",
            "state_code": "06",
            "latitude": "-0.65604770",
            "longitude": "37.72376780"
        }
    },
    {
        "model": "main.State",
        "pk": 164,
        "fields": {
            "name": "Laikipia County",
            "country": 113,
            "country_code": "KE",
            "state_code": "20",
            "latitude": "0.36060630",
            "longitude": "36.78195050"
        }
    },
    {
        "model": "main.State",
        "pk": 165,
        "fields": {
            "name": "Nandi District",
            "country": 113,
            "country_code": "KE",
            "state_code": "32",
            "latitude": "0.18358670",
            "longitude": "35.12687810"
        }
    },
    {
        "model": "main.State",
        "pk": 166,
        "fields": {
            "name": "Lamu County",
            "country": 113,
            "country_code": "KE",
            "state_code": "21",
            "latitude": "-2.23550580",
            "longitude": "40.47200040"
        }
    },
    {
        "model": "main.State",
        "pk": 167,
        "fields": {
            "name": "Kirinyaga County",
            "country": 113,
            "country_code": "KE",
            "state_code": "15",
            "latitude": "-0.65905650",
            "longitude": "37.38272340"
        }
    },
    {
        "model": "main.State",
        "pk": 168,
        "fields": {
            "name": "Bungoma County",
            "country": 113,
            "country_code": "KE",
            "state_code": "03",
            "latitude": "0.56952520",
            "longitude": "34.55837660"
        }
    },
    {
        "model": "main.State",
        "pk": 169,
        "fields": {
            "name": "Uasin Gishu District",
            "country": 113,
            "country_code": "KE",
            "state_code": "44",
            "latitude": "0.55276380",
            "longitude": "35.30272260"
        }
    },
    {
        "model": "main.State",
        "pk": 170,
        "fields": {
            "name": "Isiolo County",
            "country": 113,
            "country_code": "KE",
            "state_code": "09",
            "latitude": "0.35243520",
            "longitude": "38.48499230"
        }
    },
    {
        "model": "main.State",
        "pk": 171,
        "fields": {
            "name": "Kisumu County",
            "country": 113,
            "country_code": "KE",
            "state_code": "17",
            "latitude": "-0.09170160",
            "longitude": "34.76795680"
        }
    },
    {
        "model": "main.State",
        "pk": 172,
        "fields": {
            "name": "Coast Province",
            "country": 113,
            "country_code": "KE",
            "state_code": "300",
            "latitude": "39.13733050",
            "longitude": "-76.72941440"
        }
    },
    {
        "model": "main.State",
        "pk": 173,
        "fields": {
            "name": "Kwale County",
            "country": 113,
            "country_code": "KE",
            "state_code": "19",
            "latitude": "-4.18161150",
            "longitude": "39.46056120"
        }
    },
    {
        "model": "main.State",
        "pk": 174,
        "fields": {
            "name": "Kilifi County",
            "country": 113,
            "country_code": "KE",
            "state_code": "14",
            "latitude": "-3.51065080",
            "longitude": "39.90932690"
        }
    },
    {
        "model": "main.State",
        "pk": 175,
        "fields": {
            "name": "Narok County",
            "country": 113,
            "country_code": "KE",
            "state_code": "33",
            "latitude": "-1.10411100",
            "longitude": "36.08934060"
        }
    },
    {
        "model": "main.State",
        "pk": 176,
        "fields": {
            "name": "Taita–Taveta County",
            "country": 113,
            "country_code": "KE",
            "state_code": "39",
            "latitude": "-3.31606870",
            "longitude": "38.48499230"
        }
    },
    {
        "model": "main.State",
        "pk": 177,
        "fields": {
            "name": "Western Province",
            "country": 113,
            "country_code": "KE",
            "state_code": "800",
            "latitude": "",
            "longitude": ""
        }
    },
    {
        "model": "main.State",
        "pk": 178,
        "fields": {
            "name": "Muranga County",
            "country": 113,
            "country_code": "KE",
            "state_code": "29",
            "latitude": "-0.78392810",
            "longitude": "37.04003390"
        }
    },
    {
        "model": "main.State",
        "pk": 179,
        "fields": {
            "name": "Rift Valley Province",
            "country": 113,
            "country_code": "KE",
            "state_code": "700",
            "latitude": "11.40987370",
            "longitude": "41.28085770"
        }
    },
    {
        "model": "main.State",
        "pk": 180,
        "fields": {
            "name": "Nyeri County",
            "country": 113,
            "country_code": "KE",
            "state_code": "36",
            "latitude": "-0.41969150",
            "longitude": "37.04003390"
        }
    },
    {
        "model": "main.State",
        "pk": 181,
        "fields": {
            "name": "Baringo County",
            "country": 113,
            "country_code": "KE",
            "state_code": "01",
            "latitude": "0.85549880",
            "longitude": "36.08934060"
        }
    },
    {
        "model": "main.State",
        "pk": 182,
        "fields": {
            "name": "Wajir County",
            "country": 113,
            "country_code": "KE",
            "state_code": "46",
            "latitude": "1.63604750",
            "longitude": "40.30886260"
        }
    },
    {
        "model": "main.State",
        "pk": 183,
        "fields": {
            "name": "Trans-Nzoia District",
            "country": 113,
            "country_code": "KE",
            "state_code": "42",
            "latitude": "1.05666670",
            "longitude": "34.95066250"
        }
    },
    {
        "model": "main.State",
        "pk": 184,
        "fields": {
            "name": "Machakos County",
            "country": 113,
            "country_code": "KE",
            "state_code": "22",
            "latitude": "-1.51768370",
            "longitude": "37.26341460"
        }
    },
    {
        "model": "main.State",
        "pk": 185,
        "fields": {
            "name": "Tharaka Nithi County",
            "country": 113,
            "country_code": "KE",
            "state_code": "41",
            "latitude": "-0.29648510",
            "longitude": "37.72376780"
        }
    },
    {
        "model": "main.State",
        "pk": 186,
        "fields": {
            "name": "Siaya County",
            "country": 113,
            "country_code": "KE",
            "state_code": "38",
            "latitude": "-0.06173280",
            "longitude": "34.24215970"
        }
    },
    {
        "model": "main.State",
        "pk": 187,
        "fields": {
            "name": "Mandera County",
            "country": 113,
            "country_code": "KE",
            "state_code": "24",
            "latitude": "3.57379910",
            "longitude": "40.95868800"
        }
    },
    {
        "model": "main.State",
        "pk": 188,
        "fields": {
            "name": "Makueni County",
            "country": 113,
            "country_code": "KE",
            "state_code": "23",
            "latitude": "-2.25587340",
            "longitude": "37.89366630"
        }
    },
    {
        "model": "main.State",
        "pk": 189,
        "fields": {
            "name": "Eastern Province",
            "country": 113,
            "country_code": "KE",
            "state_code": "400",
            "latitude": "",
            "longitude": ""
        }
    },
    {
        "model": "main.State",
        "pk": 190,
        "fields": {
            "name": "Migori County",
            "country": 113,
            "country_code": "KE",
            "state_code": "27",
            "latitude": "-0.93657020",
            "longitude": "34.41982430"
        }
    },
    {
        "model": "main.State",
        "pk": 191,
        "fields": {
            "name": "Nairobi",
            "country": 113,
            "country_code": "KE",
            "state_code": "110",
            "latitude": "-1.29206590",
            "longitude": "36.82194620"
        }
    },
    {
        "model": "main.State",
        "pk": 192,
        "fields": {
            "name": "Nyandarua County",
            "country": 113,
            "country_code": "KE",
            "state_code": "35",
            "latitude": "-0.18038550",
            "longitude": "36.52296410"
        }
    },
    {
        "model": "main.State",
        "pk": 193,
        "fields": {
            "name": "Kericho County",
            "country": 113,
            "country_code": "KE",
            "state_code": "12",
            "latitude": "-0.18279130",
            "longitude": "35.47819260"
        }
    },
    {
        "model": "main.State",
        "pk": 194,
        "fields": {
            "name": "Marsabit County",
            "country": 113,
            "country_code": "KE",
            "state_code": "25",
            "latitude": "2.44264030",
            "longitude": "37.97845850"
        }
    },
    {
        "model": "main.State",
        "pk": 195,
        "fields": {
            "name": "Homa Bay County",
            "country": 113,
            "country_code": "KE",
            "state_code": "08",
            "latitude": "-0.62206550",
            "longitude": "34.33103640"
        }
    },
    {
        "model": "main.State",
        "pk": 196,
        "fields": {
            "name": "Garissa County",
            "country": 113,
            "country_code": "KE",
            "state_code": "07",
            "latitude": "-0.45322930",
            "longitude": "39.64609880"
        }
    },
    {
        "model": "main.State",
        "pk": 197,
        "fields": {
            "name": "Kajiado County",
            "country": 113,
            "country_code": "KE",
            "state_code": "10",
            "latitude": "-2.09807510",
            "longitude": "36.78195050"
        }
    },
    {
        "model": "main.State",
        "pk": 198,
        "fields": {
            "name": "Meru County",
            "country": 113,
            "country_code": "KE",
            "state_code": "26",
            "latitude": "0.35571740",
            "longitude": "37.80876930"
        }
    },
    {
        "model": "main.State",
        "pk": 199,
        "fields": {
            "name": "Kiambu County",
            "country": 113,
            "country_code": "KE",
            "state_code": "13",
            "latitude": "-1.03137010",
            "longitude": "36.86807910"
        }
    },
    {
        "model": "main.State",
        "pk": 200,
        "fields": {
            "name": "Mombasa County",
            "country": 113,
            "country_code": "KE",
            "state_code": "28",
            "latitude": "-3.97682910",
            "longitude": "39.71371810"
        }
    },
    {
        "model": "main.State",
        "pk": 201,
        "fields": {
            "name": "Elgeyo-Marakwet County",
            "country": 113,
            "country_code": "KE",
            "state_code": "05",
            "latitude": "1.04982370",
            "longitude": "35.47819260"
        }
    },
    {
        "model": "main.State",
        "pk": 202,
        "fields": {
            "name": "Vihiga District",
            "country": 113,
            "country_code": "KE",
            "state_code": "45",
            "latitude": "0.07675530",
            "longitude": "34.70776650"
        }
    },
    {
        "model": "main.State",
        "pk": 203,
        "fields": {
            "name": "Nakuru District",
            "country": 113,
            "country_code": "KE",
            "state_code": "31",
            "latitude": "-0.30309880",
            "longitude": "36.08002600"
        }
    },
    {
        "model": "main.State",
        "pk": 204,
        "fields": {
            "name": "Nyanza Province",
            "country": 113,
            "country_code": "KE",
            "state_code": "600",
            "latitude": "-0.08898940",
            "longitude": "34.77179120"
        }
    },
    {
        "model": "main.State",
        "pk": 205,
        "fields": {
            "name": "Tana River County",
            "country": 113,
            "country_code": "KE",
            "state_code": "40",
            "latitude": "-1.65184680",
            "longitude": "39.65181650"
        }
    },
    {
        "model": "main.State",
        "pk": 206,
        "fields": {
            "name": "Turkana County",
            "country": 113,
            "country_code": "KE",
            "state_code": "43",
            "latitude": "3.31224770",
            "longitude": "35.56578620"
        }
    },
    {
        "model": "main.State",
        "pk": 207,
        "fields": {
            "name": "Samburu County",
            "country": 113,
            "country_code": "KE",
            "state_code": "37",
            "latitude": "1.21545060",
            "longitude": "36.95410700"
        }
    },
    {
        "model": "main.State",
        "pk": 208,
        "fields": {
            "name": "West Pokot County",
            "country": 113,
            "country_code": "KE",
            "state_code": "47",
            "latitude": "1.62100760",
            "longitude": "35.39050460"
        }
    },
    {
        "model": "main.State",
        "pk": 209,
        "fields": {
            "name": "Nyamira District",
            "country": 113,
            "country_code": "KE",
            "state_code": "34",
            "latitude": "-0.56694050",
            "longitude": "34.93412340"
        }
    },
    {
        "model": "main.State",
        "pk": 210,
        "fields": {
            "name": "Bomet County",
            "country": 113,
            "country_code": "KE",
            "state_code": "02",
            "latitude": "-0.80150090",
            "longitude": "35.30272260"
        }
    },
    {
        "model": "main.State",
        "pk": 211,
        "fields": {
            "name": "Kitui County",
            "country": 113,
            "country_code": "KE",
            "state_code": "18",
            "latitude": "-1.68328220",
            "longitude": "38.31657250"
        }
    },
    {
        "model": "main.State",
        "pk": 212,
        "fields": {
            "name": "Bié Province",
            "country": 7,
            "country_code": "AO",
            "state_code": "BIE",
            "latitude": "-12.57279070",
            "longitude": "17.66888700"
        }
    },
    {
        "model": "main.State",
        "pk": 213,
        "fields": {
            "name": "Huambo Province",
            "country": 7,
            "country_code": "AO",
            "state_code": "HUA",
            "latitude": "-12.52682210",
            "longitude": "15.59433880"
        }
    },
    {
        "model": "main.State",
        "pk": 214,
        "fields": {
            "name": "Zaire Province",
            "country": 7,
            "country_code": "AO",
            "state_code": "ZAI",
            "latitude": "-6.57334580",
            "longitude": "13.17403480"
        }
    },
    {
        "model": "main.State",
        "pk": 215,
        "fields": {
            "name": "Cunene Province",
            "country": 7,
            "country_code": "AO",
            "state_code": "CNN",
            "latitude": "-16.28022210",
            "longitude": "16.15809370"
        }
    },
    {
        "model": "main.State",
        "pk": 216,
        "fields": {
            "name": "Cuanza Sul",
            "country": 7,
            "country_code": "AO",
            "state_code": "CUS",
            "latitude": "-10.59519100",
            "longitude": "15.40680790"
        }
    },
    {
        "model": "main.State",
        "pk": 217,
        "fields": {
            "name": "Cuanza Norte Province",
            "country": 7,
            "country_code": "AO",
            "state_code": "CNO",
            "latitude": "-9.23985130",
            "longitude": "14.65878210"
        }
    },
    {
        "model": "main.State",
        "pk": 218,
        "fields": {
            "name": "Benguela Province",
            "country": 7,
            "country_code": "AO",
            "state_code": "BGU",
            "latitude": "-12.80037440",
            "longitude": "13.91439900"
        }
    },
    {
        "model": "main.State",
        "pk": 219,
        "fields": {
            "name": "Moxico Province",
            "country": 7,
            "country_code": "AO",
            "state_code": "MOX",
            "latitude": "-13.42935790",
            "longitude": "20.33088140"
        }
    },
    {
        "model": "main.State",
        "pk": 220,
        "fields": {
            "name": "Lunda Sul Province",
            "country": 7,
            "country_code": "AO",
            "state_code": "LSU",
            "latitude": "-10.28665780",
            "longitude": "20.71224650"
        }
    },
    {
        "model": "main.State",
        "pk": 221,
        "fields": {
            "name": "Bengo Province",
            "country": 7,
            "country_code": "AO",
            "state_code": "BGO",
            "latitude": "-9.10422570",
            "longitude": "13.72891670"
        }
    },
    {
        "model": "main.State",
        "pk": 222,
        "fields": {
            "name": "Luanda Province",
            "country": 7,
            "country_code": "AO",
            "state_code": "LUA",
            "latitude": "-9.03508800",
            "longitude": "13.26634790"
        }
    },
    {
        "model": "main.State",
        "pk": 223,
        "fields": {
            "name": "Lunda Norte Province",
            "country": 7,
            "country_code": "AO",
            "state_code": "LNO",
            "latitude": "-8.35250220",
            "longitude": "19.18800470"
        }
    },
    {
        "model": "main.State",
        "pk": 224,
        "fields": {
            "name": "Uíge Province",
            "country": 7,
            "country_code": "AO",
            "state_code": "UIG",
            "latitude": "-7.17367320",
            "longitude": "15.40680790"
        }
    },
    {
        "model": "main.State",
        "pk": 225,
        "fields": {
            "name": "Huíla Province",
            "country": 7,
            "country_code": "AO",
            "state_code": "HUI",
            "latitude": "-14.92805530",
            "longitude": "14.65878210"
        }
    },
    {
        "model": "main.State",
        "pk": 226,
        "fields": {
            "name": "Cuando Cubango Province",
            "country": 7,
            "country_code": "AO",
            "state_code": "CCU",
            "latitude": "-16.41808240",
            "longitude": "18.80761950"
        }
    },
    {
        "model": "main.State",
        "pk": 227,
        "fields": {
            "name": "Malanje Province",
            "country": 7,
            "country_code": "AO",
            "state_code": "MAL",
            "latitude": "-9.82511830",
            "longitude": "16.91225100"
        }
    },
    {
        "model": "main.State",
        "pk": 228,
        "fields": {
            "name": "Cabinda Province",
            "country": 7,
            "country_code": "AO",
            "state_code": "CAB",
            "latitude": "-5.02487490",
            "longitude": "12.34638750"
        }
    },
    {
        "model": "main.State",
        "pk": 229,
        "fields": {
            "name": "Gasa District",
            "country": 26,
            "country_code": "BT",
            "state_code": "GA",
            "latitude": "28.01858860",
            "longitude": "89.92532330"
        }
    },
    {
        "model": "main.State",
        "pk": 230,
        "fields": {
            "name": "Tsirang District",
            "country": 26,
            "country_code": "BT",
            "state_code": "21",
            "latitude": "27.03220700",
            "longitude": "90.18696440"
        }
    },
    {
        "model": "main.State",
        "pk": 231,
        "fields": {
            "name": "Wangdue Phodrang District",
            "country": 26,
            "country_code": "BT",
            "state_code": "24",
            "latitude": "27.45260460",
            "longitude": "90.06749280"
        }
    },
    {
        "model": "main.State",
        "pk": 232,
        "fields": {
            "name": "Haa District",
            "country": 26,
            "country_code": "BT",
            "state_code": "13",
            "latitude": "27.26516690",
            "longitude": "89.17059980"
        }
    },
    {
        "model": "main.State",
        "pk": 233,
        "fields": {
            "name": "Zhemgang District",
            "country": 26,
            "country_code": "BT",
            "state_code": "34",
            "latitude": "27.07697500",
            "longitude": "90.82940020"
        }
    },
    {
        "model": "main.State",
        "pk": 234,
        "fields": {
            "name": "Lhuntse District",
            "country": 26,
            "country_code": "BT",
            "state_code": "44",
            "latitude": "27.82649890",
            "longitude": "91.13530200"
        }
    },
    {
        "model": "main.State",
        "pk": 235,
        "fields": {
            "name": "Punakha District",
            "country": 26,
            "country_code": "BT",
            "state_code": "23",
            "latitude": "27.69037160",
            "longitude": "89.88793040"
        }
    },
    {
        "model": "main.State",
        "pk": 236,
        "fields": {
            "name": "Trashigang District",
            "country": 26,
            "country_code": "BT",
            "state_code": "41",
            "latitude": "27.25667950",
            "longitude": "91.75388170"
        }
    },
    {
        "model": "main.State",
        "pk": 237,
        "fields": {
            "name": "Paro District",
            "country": 26,
            "country_code": "BT",
            "state_code": "11",
            "latitude": "27.42859490",
            "longitude": "89.41665160"
        }
    },
    {
        "model": "main.State",
        "pk": 238,
        "fields": {
            "name": "Dagana District",
            "country": 26,
            "country_code": "BT",
            "state_code": "22",
            "latitude": "27.03228610",
            "longitude": "89.88793040"
        }
    },
    {
        "model": "main.State",
        "pk": 239,
        "fields": {
            "name": "Chukha District",
            "country": 26,
            "country_code": "BT",
            "state_code": "12",
            "latitude": "27.07843040",
            "longitude": "89.47421770"
        }
    },
    {
        "model": "main.State",
        "pk": 240,
        "fields": {
            "name": "Bumthang District",
            "country": 26,
            "country_code": "BT",
            "state_code": "33",
            "latitude": "27.64183900",
            "longitude": "90.67730460"
        }
    },
    {
        "model": "main.State",
        "pk": 241,
        "fields": {
            "name": "Thimphu District",
            "country": 26,
            "country_code": "BT",
            "state_code": "15",
            "latitude": "27.47122160",
            "longitude": "89.63390410"
        }
    },
    {
        "model": "main.State",
        "pk": 242,
        "fields": {
            "name": "Mongar District",
            "country": 26,
            "country_code": "BT",
            "state_code": "42",
            "latitude": "27.26170590",
            "longitude": "91.28910360"
        }
    },
    {
        "model": "main.State",
        "pk": 243,
        "fields": {
            "name": "Samdrup Jongkhar District",
            "country": 26,
            "country_code": "BT",
            "state_code": "45",
            "latitude": "26.80356820",
            "longitude": "91.50392070"
        }
    },
    {
        "model": "main.State",
        "pk": 244,
        "fields": {
            "name": "Pemagatshel District",
            "country": 26,
            "country_code": "BT",
            "state_code": "43",
            "latitude": "27.00238200",
            "longitude": "91.34692470"
        }
    },
    {
        "model": "main.State",
        "pk": 245,
        "fields": {
            "name": "Trongsa District",
            "country": 26,
            "country_code": "BT",
            "state_code": "32",
            "latitude": "27.50022690",
            "longitude": "90.50806340"
        }
    },
    {
        "model": "main.State",
        "pk": 246,
        "fields": {
            "name": "Samtse District",
            "country": 26,
            "country_code": "BT",
            "state_code": "14",
            "latitude": "27.02918320",
            "longitude": "89.05615320"
        }
    },
    {
        "model": "main.State",
        "pk": 247,
        "fields": {
            "name": "Sarpang District",
            "country": 26,
            "country_code": "BT",
            "state_code": "31",
            "latitude": "26.93730410",
            "longitude": "90.48799160"
        }
    },
    {
        "model": "main.State",
        "pk": 248,
        "fields": {
            "name": "Tombouctou Region",
            "country": 134,
            "country_code": "ML",
            "state_code": "6",
            "latitude": "21.05267060",
            "longitude": "-3.74350900"
        }
    },
    {
        "model": "main.State",
        "pk": 249,
        "fields": {
            "name": "Ségou Region",
            "country": 134,
            "country_code": "ML",
            "state_code": "4",
            "latitude": "13.83944560",
            "longitude": "-6.06791940"
        }
    },
    {
        "model": "main.State",
        "pk": 250,
        "fields": {
            "name": "Koulikoro Region",
            "country": 134,
            "country_code": "ML",
            "state_code": "2",
            "latitude": "13.80180740",
            "longitude": "-7.43813550"
        }
    },
    {
        "model": "main.State",
        "pk": 251,
        "fields": {
            "name": "Ménaka Region",
            "country": 134,
            "country_code": "ML",
            "state_code": "9",
            "latitude": "15.91564210",
            "longitude": "2.39617400"
        }
    },
    {
        "model": "main.State",
        "pk": 252,
        "fields": {
            "name": "Kayes Region",
            "country": 134,
            "country_code": "ML",
            "state_code": "1",
            "latitude": "14.08183080",
            "longitude": "-9.90181310"
        }
    },
    {
        "model": "main.State",
        "pk": 253,
        "fields": {
            "name": "Bamako",
            "country": 134,
            "country_code": "ML",
            "state_code": "BKO",
            "latitude": "12.63923160",
            "longitude": "-8.00288920"
        }
    },
    {
        "model": "main.State",
        "pk": 254,
        "fields": {
            "name": "Sikasso Region",
            "country": 134,
            "country_code": "ML",
            "state_code": "3",
            "latitude": "10.89051860",
            "longitude": "-7.43813550"
        }
    },
    {
        "model": "main.State",
        "pk": 255,
        "fields": {
            "name": "Mopti Region",
            "country": 134,
            "country_code": "ML",
            "state_code": "5",
            "latitude": "14.63380390",
            "longitude": "-3.41955270"
        }
    },
    {
        "model": "main.State",
        "pk": 256,
        "fields": {
            "name": "Taoudénit Region",
            "country": 134,
            "country_code": "ML",
            "state_code": "10",
            "latitude": "22.67641320",
            "longitude": "-3.97891430"
        }
    },
    {
        "model": "main.State",
        "pk": 257,
        "fields": {
            "name": "Kidal Region",
            "country": 134,
            "country_code": "ML",
            "state_code": "8",
            "latitude": "18.79868320",
            "longitude": "1.83183340"
        }
    },
    {
        "model": "main.State",
        "pk": 258,
        "fields": {
            "name": "Gao Region",
            "country": 134,
            "country_code": "ML",
            "state_code": "7",
            "latitude": "16.90663320",
            "longitude": "1.52086240"
        }
    },
    {
        "model": "main.State",
        "pk": 259,
        "fields": {
            "name": "Southern Province",
            "country": 183,
            "country_code": "RW",
            "state_code": "05",
            "latitude": "",
            "longitude": ""
        }
    },
    {
        "model": "main.State",
        "pk": 260,
        "fields": {
            "name": "Western Province",
            "country": 183,
            "country_code": "RW",
            "state_code": "04",
            "latitude": "",
            "longitude": ""
        }
    },
    {
        "model": "main.State",
        "pk": 261,
        "fields": {
            "name": "Eastern Province",
            "country": 183,
            "country_code": "RW",
            "state_code": "02",
            "latitude": "",
            "longitude": ""
        }
    },
    {
        "model": "main.State",
        "pk": 262,
        "fields": {
            "name": "Kigali district",
            "country": 183,
            "country_code": "RW",
            "state_code": "01",
            "latitude": "-1.94407270",
            "longitude": "30.06188510"
        }
    },
    {
        "model": "main.State",
        "pk": 263,
        "fields": {
            "name": "Northern Province",
            "country": 183,
            "country_code": "RW",
            "state_code": "03",
            "latitude": "",
            "longitude": ""
        }
    },
    {
        "model": "main.State",
        "pk": 264,
        "fields": {
            "name": "Belize District",
            "country": 23,
            "country_code": "BZ",
            "state_code": "BZ",
            "latitude": "17.56776790",
            "longitude": "-88.40160410"
        }
    },
    {
        "model": "main.State",
        "pk": 265,
        "fields": {
            "name": "Stann Creek District",
            "country": 23,
            "country_code": "BZ",
            "state_code": "SC",
            "latitude": "16.81166310",
            "longitude": "-88.40160410"
        }
    },
    {
        "model": "main.State",
        "pk": 266,
        "fields": {
            "name": "Corozal District",
            "country": 23,
            "country_code": "BZ",
            "state_code": "CZL",
            "latitude": "18.13492380",
            "longitude": "-88.24611830"
        }
    },
    {
        "model": "main.State",
        "pk": 267,
        "fields": {
            "name": "Toledo District",
            "country": 23,
            "country_code": "BZ",
            "state_code": "TOL",
            "latitude": "16.24919230",
            "longitude": "-88.86469800"
        }
    },
    {
        "model": "main.State",
        "pk": 268,
        "fields": {
            "name": "Orange Walk District",
            "country": 23,
            "country_code": "BZ",
            "state_code": "OW",
            "latitude": "17.76035300",
            "longitude": "-88.86469800"
        }
    },
    {
        "model": "main.State",
        "pk": 269,
        "fields": {
            "name": "Cayo District",
            "country": 23,
            "country_code": "BZ",
            "state_code": "CY",
            "latitude": "17.09844450",
            "longitude": "-88.94138650"
        }
    },
    {
        "model": "main.State",
        "pk": 270,
        "fields": {
            "name": "Príncipe Province",
            "country": 193,
            "country_code": "ST",
            "state_code": "P",
            "latitude": "1.61393810",
            "longitude": "7.40569280"
        }
    },
    {
        "model": "main.State",
        "pk": 271,
        "fields": {
            "name": "São Tomé Province",
            "country": 193,
            "country_code": "ST",
            "state_code": "S",
            "latitude": "0.33019240",
            "longitude": "6.73334300"
        }
    },
    {
        "model": "main.State",
        "pk": 272,
        "fields": {
            "name": "Havana Province",
            "country": 56,
            "country_code": "CU",
            "state_code": "03",
            "latitude": "23.05406980",
            "longitude": "-82.34518900"
        }
    },
    {
        "model": "main.State",
        "pk": 273,
        "fields": {
            "name": "Santiago de Cuba Province",
            "country": 56,
            "country_code": "CU",
            "state_code": "13",
            "latitude": "20.23976820",
            "longitude": "-75.99276520"
        }
    },
    {
        "model": "main.State",
        "pk": 274,
        "fields": {
            "name": "Sancti Spíritus Province",
            "country": 56,
            "country_code": "CU",
            "state_code": "07",
            "latitude": "21.99382140",
            "longitude": "-79.47038850"
        }
    },
    {
        "model": "main.State",
        "pk": 275,
        "fields": {
            "name": "Granma Province",
            "country": 56,
            "country_code": "CU",
            "state_code": "12",
            "latitude": "20.38449020",
            "longitude": "-76.64127120"
        }
    },
    {
        "model": "main.State",
        "pk": 276,
        "fields": {
            "name": "Mayabeque Province",
            "country": 56,
            "country_code": "CU",
            "state_code": "16",
            "latitude": "22.89265290",
            "longitude": "-81.95348150"
        }
    },
    {
        "model": "main.State",
        "pk": 277,
        "fields": {
            "name": "Pinar del Río Province",
            "country": 56,
            "country_code": "CU",
            "state_code": "01",
            "latitude": "22.40762560",
            "longitude": "-83.84730150"
        }
    },
    {
        "model": "main.State",
        "pk": 278,
        "fields": {
            "name": "Isla de la Juventud",
            "country": 56,
            "country_code": "CU",
            "state_code": "99",
            "latitude": "21.70847370",
            "longitude": "-82.82202320"
        }
    },
    {
        "model": "main.State",
        "pk": 279,
        "fields": {
            "name": "Holguín Province",
            "country": 56,
            "country_code": "CU",
            "state_code": "11",
            "latitude": "20.78378930",
            "longitude": "-75.80690820"
        }
    },
    {
        "model": "main.State",
        "pk": 280,
        "fields": {
            "name": "Villa Clara Province",
            "country": 56,
            "country_code": "CU",
            "state_code": "05",
            "latitude": "22.49372040",
            "longitude": "-79.91927020"
        }
    },
    {
        "model": "main.State",
        "pk": 281,
        "fields": {
            "name": "Las Tunas Province",
            "country": 56,
            "country_code": "CU",
            "state_code": "10",
            "latitude": "21.06051620",
            "longitude": "-76.91820970"
        }
    },
    {
        "model": "main.State",
        "pk": 282,
        "fields": {
            "name": "Ciego de Ávila Province",
            "country": 56,
            "country_code": "CU",
            "state_code": "08",
            "latitude": "21.93295150",
            "longitude": "-78.56608520"
        }
    },
    {
        "model": "main.State",
        "pk": 283,
        "fields": {
            "name": "Artemisa Province",
            "country": 56,
            "country_code": "CU",
            "state_code": "15",
            "latitude": "22.75229030",
            "longitude": "-82.99316070"
        }
    },
    {
        "model": "main.State",
        "pk": 284,
        "fields": {
            "name": "Matanzas Province",
            "country": 56,
            "country_code": "CU",
            "state_code": "04",
            "latitude": "22.57671230",
            "longitude": "-81.33994140"
        }
    },
    {
        "model": "main.State",
        "pk": 285,
        "fields": {
            "name": "Guantánamo Province",
            "country": 56,
            "country_code": "CU",
            "state_code": "14",
            "latitude": "20.14559170",
            "longitude": "-74.87410450"
        }
    },
    {
        "model": "main.State",
        "pk": 286,
        "fields": {
            "name": "Camagüey Province",
            "country": 56,
            "country_code": "CU",
            "state_code": "09",
            "latitude": "21.21672470",
            "longitude": "-77.74520810"
        }
    },
    {
        "model": "main.State",
        "pk": 287,
        "fields": {
            "name": "Cienfuegos Province",
            "country": 56,
            "country_code": "CU",
            "state_code": "06",
            "latitude": "22.23797830",
            "longitude": "-80.36586500"
        }
    },
    {
        "model": "main.State",
        "pk": 288,
        "fields": {
            "name": "Jigawa",
            "country": 161,
            "country_code": "NG",
            "state_code": "JI",
            "latitude": "12.22801200",
            "longitude": "9.56158670"
        }
    },
    {
        "model": "main.State",
        "pk": 289,
        "fields": {
            "name": "Enugu",
            "country": 161,
            "country_code": "NG",
            "state_code": "EN",
            "latitude": "6.53635300",
            "longitude": "7.43561940"
        }
    },
    {
        "model": "main.State",
        "pk": 290,
        "fields": {
            "name": "Kebbi",
            "country": 161,
            "country_code": "NG",
            "state_code": "KE",
            "latitude": "11.49420030",
            "longitude": "4.23333550"
        }
    },
    {
        "model": "main.State",
        "pk": 291,
        "fields": {
            "name": "Benue",
            "country": 161,
            "country_code": "NG",
            "state_code": "BE",
            "latitude": "7.33690240",
            "longitude": "8.74036870"
        }
    },
    {
        "model": "main.State",
        "pk": 292,
        "fields": {
            "name": "Sokoto",
            "country": 161,
            "country_code": "NG",
            "state_code": "SO",
            "latitude": "13.05331430",
            "longitude": "5.32227220"
        }
    },
    {
        "model": "main.State",
        "pk": 293,
        "fields": {
            "name": "Abuja Federal Capital Territory",
            "country": 161,
            "country_code": "NG",
            "state_code": "FC",
            "latitude": "8.89406910",
            "longitude": "7.18604020"
        }
    },
    {
        "model": "main.State",
        "pk": 294,
        "fields": {
            "name": "Kaduna",
            "country": 161,
            "country_code": "NG",
            "state_code": "KD",
            "latitude": "10.37640060",
            "longitude": "7.70945370"
        }
    },
    {
        "model": "main.State",
        "pk": 295,
        "fields": {
            "name": "Kwara",
            "country": 161,
            "country_code": "NG",
            "state_code": "KW",
            "latitude": "8.96689610",
            "longitude": "4.38740510"
        }
    },
    {
        "model": "main.State",
        "pk": 296,
        "fields": {
            "name": "Oyo",
            "country": 161,
            "country_code": "NG",
            "state_code": "OY",
            "latitude": "8.15738090",
            "longitude": "3.61465340"
        }
    },
    {
        "model": "main.State",
        "pk": 297,
        "fields": {
            "name": "Yobe",
            "country": 161,
            "country_code": "NG",
            "state_code": "YO",
            "latitude": "12.29387600",
            "longitude": "11.43904110"
        }
    },
    {
        "model": "main.State",
        "pk": 298,
        "fields": {
            "name": "Kogi",
            "country": 161,
            "country_code": "NG",
            "state_code": "KO",
            "latitude": "7.73373250",
            "longitude": "6.69058360"
        }
    },
    {
        "model": "main.State",
        "pk": 299,
        "fields": {
            "name": "Zamfara",
            "country": 161,
            "country_code": "NG",
            "state_code": "ZA",
            "latitude": "12.12218050",
            "longitude": "6.22358190"
        }
    },
    {
        "model": "main.State",
        "pk": 300,
        "fields": {
            "name": "Kano",
            "country": 161,
            "country_code": "NG",
            "state_code": "KN",
            "latitude": "11.74706980",
            "longitude": "8.52471070"
        }
    },
    {
        "model": "main.State",
        "pk": 301,
        "fields": {
            "name": "Nasarawa",
            "country": 161,
            "country_code": "NG",
            "state_code": "NA",
            "latitude": "8.49979080",
            "longitude": "8.19969370"
        }
    },
    {
        "model": "main.State",
        "pk": 302,
        "fields": {
            "name": "Plateau",
            "country": 161,
            "country_code": "NG",
            "state_code": "PL",
            "latitude": "9.21820930",
            "longitude": "9.51794880"
        }
    },
    {
        "model": "main.State",
        "pk": 303,
        "fields": {
            "name": "Abia",
            "country": 161,
            "country_code": "NG",
            "state_code": "AB",
            "latitude": "5.45273540",
            "longitude": "7.52484140"
        }
    },
    {
        "model": "main.State",
        "pk": 304,
        "fields": {
            "name": "Akwa Ibom",
            "country": 161,
            "country_code": "NG",
            "state_code": "AK",
            "latitude": "4.90573710",
            "longitude": "7.85366750"
        }
    },
    {
        "model": "main.State",
        "pk": 305,
        "fields": {
            "name": "Bayelsa",
            "country": 161,
            "country_code": "NG",
            "state_code": "BY",
            "latitude": "4.77190710",
            "longitude": "6.06985260"
        }
    },
    {
        "model": "main.State",
        "pk": 306,
        "fields": {
            "name": "Lagos",
            "country": 161,
            "country_code": "NG",
            "state_code": "LA",
            "latitude": "6.52437930",
            "longitude": "3.37920570"
        }
    },
    {
        "model": "main.State",
        "pk": 307,
        "fields": {
            "name": "Borno",
            "country": 161,
            "country_code": "NG",
            "state_code": "BO",
            "latitude": "11.88463560",
            "longitude": "13.15196650"
        }
    },
    {
        "model": "main.State",
        "pk": 308,
        "fields": {
            "name": "Imo",
            "country": 161,
            "country_code": "NG",
            "state_code": "IM",
            "latitude": "5.57201220",
            "longitude": "7.05882190"
        }
    },
    {
        "model": "main.State",
        "pk": 309,
        "fields": {
            "name": "Ekiti",
            "country": 161,
            "country_code": "NG",
            "state_code": "EK",
            "latitude": "7.71898620",
            "longitude": "5.31095050"
        }
    },
    {
        "model": "main.State",
        "pk": 310,
        "fields": {
            "name": "Gombe",
            "country": 161,
            "country_code": "NG",
            "state_code": "GO",
            "latitude": "10.36377950",
            "longitude": "11.19275870"
        }
    },
    {
        "model": "main.State",
        "pk": 311,
        "fields": {
            "name": "Ebonyi",
            "country": 161,
            "country_code": "NG",
            "state_code": "EB",
            "latitude": "6.26492320",
            "longitude": "8.01373020"
        }
    },
    {
        "model": "main.State",
        "pk": 312,
        "fields": {
            "name": "Bauchi",
            "country": 161,
            "country_code": "NG",
            "state_code": "BA",
            "latitude": "10.77606240",
            "longitude": "9.99919430"
        }
    },
    {
        "model": "main.State",
        "pk": 313,
        "fields": {
            "name": "Katsina",
            "country": 161,
            "country_code": "NG",
            "state_code": "KT",
            "latitude": "12.37967070",
            "longitude": "7.63057480"
        }
    },
    {
        "model": "main.State",
        "pk": 314,
        "fields": {
            "name": "Cross River",
            "country": 161,
            "country_code": "NG",
            "state_code": "CR",
            "latitude": "5.87017240",
            "longitude": "8.59880140"
        }
    },
    {
        "model": "main.State",
        "pk": 315,
        "fields": {
            "name": "Anambra",
            "country": 161,
            "country_code": "NG",
            "state_code": "AN",
            "latitude": "6.22089970",
            "longitude": "6.93695590"
        }
    },
    {
        "model": "main.State",
        "pk": 316,
        "fields": {
            "name": "Delta",
            "country": 161,
            "country_code": "NG",
            "state_code": "DE",
            "latitude": "33.74537840",
            "longitude": "-90.73545080"
        }
    },
    {
        "model": "main.State",
        "pk": 317,
        "fields": {
            "name": "Niger",
            "country": 161,
            "country_code": "NG",
            "state_code": "NI",
            "latitude": "9.93092240",
            "longitude": "5.59832100"
        }
    },
    {
        "model": "main.State",
        "pk": 318,
        "fields": {
            "name": "Edo",
            "country": 161,
            "country_code": "NG",
            "state_code": "ED",
            "latitude": "6.63418310",
            "longitude": "5.93040560"
        }
    },
    {
        "model": "main.State",
        "pk": 319,
        "fields": {
            "name": "Taraba",
            "country": 161,
            "country_code": "NG",
            "state_code": "TA",
            "latitude": "7.99936160",
            "longitude": "10.77398630"
        }
    },
    {
        "model": "main.State",
        "pk": 320,
        "fields": {
            "name": "Adamawa",
            "country": 161,
            "country_code": "NG",
            "state_code": "AD",
            "latitude": "9.32647510",
            "longitude": "12.39838530"
        }
    },
    {
        "model": "main.State",
        "pk": 321,
        "fields": {
            "name": "Ondo",
            "country": 161,
            "country_code": "NG",
            "state_code": "ON",
            "latitude": "6.91486820",
            "longitude": "5.14781440"
        }
    },
    {
        "model": "main.State",
        "pk": 322,
        "fields": {
            "name": "Osun",
            "country": 161,
            "country_code": "NG",
            "state_code": "OS",
            "latitude": "7.56289640",
            "longitude": "4.51995930"
        }
    },
    {
        "model": "main.State",
        "pk": 323,
        "fields": {
            "name": "Ogun",
            "country": 161,
            "country_code": "NG",
            "state_code": "OG",
            "latitude": "6.99797470",
            "longitude": "3.47373780"
        }
    },
    {
        "model": "main.State",
        "pk": 324,
        "fields": {
            "name": "Rukungiri District",
            "country": 229,
            "country_code": "UG",
            "state_code": "412",
            "latitude": "-0.75184900",
            "longitude": "29.92779470"
        }
    },
    {
        "model": "main.State",
        "pk": 325,
        "fields": {
            "name": "Kyankwanzi District",
            "country": 229,
            "country_code": "UG",
            "state_code": "123",
            "latitude": "1.09660370",
            "longitude": "31.71954590"
        }
    },
    {
        "model": "main.State",
        "pk": 326,
        "fields": {
            "name": "Kabarole District",
            "country": 229,
            "country_code": "UG",
            "state_code": "405",
            "latitude": "0.58507910",
            "longitude": "30.25127280"
        }
    },
    {
        "model": "main.State",
        "pk": 327,
        "fields": {
            "name": "Mpigi District",
            "country": 229,
            "country_code": "UG",
            "state_code": "106",
            "latitude": "0.22735280",
            "longitude": "32.32492360"
        }
    },
    {
        "model": "main.State",
        "pk": 328,
        "fields": {
            "name": "Apac District",
            "country": 229,
            "country_code": "UG",
            "state_code": "302",
            "latitude": "1.87302630",
            "longitude": "32.62774550"
        }
    },
    {
        "model": "main.State",
        "pk": 329,
        "fields": {
            "name": "Abim District",
            "country": 229,
            "country_code": "UG",
            "state_code": "314",
            "latitude": "2.70669800",
            "longitude": "33.65953370"
        }
    },
    {
        "model": "main.State",
        "pk": 330,
        "fields": {
            "name": "Yumbe District",
            "country": 229,
            "country_code": "UG",
            "state_code": "313",
            "latitude": "3.46980230",
            "longitude": "31.24832910"
        }
    },
    {
        "model": "main.State",
        "pk": 331,
        "fields": {
            "name": "Rukiga District",
            "country": 229,
            "country_code": "UG",
            "state_code": "431",
            "latitude": "-1.13263370",
            "longitude": "30.04341200"
        }
    },
    {
        "model": "main.State",
        "pk": 332,
        "fields": {
            "name": "Northern Region",
            "country": 229,
            "country_code": "UG",
            "state_code": "N",
            "latitude": "9.54392690",
            "longitude": "-0.90566230"
        }
    },